district,schoolName,schoolAddress,medianResult,unit,lead,status,city,county,latitude,longitude
San Mateo-Foster City,Audubon Elementary,841 Gull Avenue Foster City CA 94404-1427,NA,NA,NA,not tested,Foster City,San Mateo County,37.5671696763845,-122.259321929782
San Mateo-Foster City,Bowditch Middle,1450 Tarpon Street Foster City CA 94404-1938,NA,NA,NA,not tested,Foster City,San Mateo County,37.560347,-122.250543
San Mateo-Foster City,Brewer Island Elementary,1151 Polynesia Drive Foster City CA 94404-1749,NA,NA,NA,not tested,Foster City,San Mateo County,37.560764475,-122.260797925
San Mateo-Foster City,Foster City Elementary,461 Beach Park Boulevard Foster City CA 94404-2713,NA,NA,NA,not tested,Foster City,San Mateo County,37.5455071073524,-122.273118532321
San Mateo-Foster City,San Mateo-Foster City Special Education Preschool,1170 Chess Drive Foster City CA 94404-1107,NA,NA,NA,not tested,Foster City,San Mateo County,37.5659375730012,-122.273100655905
