district,schoolName,schoolAddress,medianResult,unit,lead,status,city,county,latitude,longitude
Manteca Unified,"Joseph Widmer, Jr., Elementary",751 Stonebridge Lane Lathrop CA 95330-8928,NA,NA,NA,not tested,Lathrop,San Joaquin County,37.83762,-121.280408421081
Manteca Unified,Lathrop High,647 West Lathrop Road Lathrop CA 95330-9770,NA,NA,NA,not tested,Lathrop,San Joaquin County,37.8263086,-121.2857326
Manteca Unified,Mossdale Elementary,455 Brookhurst Boulevard Lathrop CA 95330-8688,NA,NA,NA,not tested,Lathrop,San Joaquin County,37.80195315,-121.306306580197
Banta Elementary,NextGeneration STEAM Academy,18001 Commercial Street Lathrop CA 95330-8543,NA,NA,NA,not tested,Lathrop,San Joaquin County,37.7967257,-121.3191383
San Joaquin County Office of Education,River Islands Technology Academy II,1175 Marina Drive Lathrop CA 95330-8543,NA,NA,NA,not tested,Lathrop,San Joaquin County,37.7995458,-121.3188311
