district,schoolName,schoolAddress,medianResult,unit,lead,status,city,county,latitude,longitude
Ripon Unified,Harvest High,729 West Main Street Ripon CA 95366-2320,NA,NA,NA,not tested,Ripon,San Joaquin County,37.7394851428571,-121.131177571429
Ripon Unified,Park View Elementary,751 Cindy Drive Ripon CA 95366-9443,NA,NA,NA,not tested,Ripon,San Joaquin County,37.7586810552764,-121.132180625628
Ripon Unified,Ripon Adult,304 North Acacia Avenue Ripon CA 95366-2404,NA,NA,NA,not tested,Ripon,San Joaquin County,37.7373930040819,-121.12866199988
Ripon Unified,Ripon Elementary,509 West Main Street Ripon CA 95366-2406,NA,NA,NA,not tested,Ripon,San Joaquin County,37.7394787346939,-121.12874022449
Ripon Unified,Ripon High,301 North Acacia Avenue Ripon CA 95366-2403,NA,NA,NA,not tested,Ripon,San Joaquin County,37.737427,-121.128661
Ripon Unified,Ripona Elementary,415 East Oregon Street Ripon CA 95366-2138,NA,NA,NA,not tested,Ripon,San Joaquin County,37.7434445116279,-121.119961209302
Ripon Unified,Weston Elementary,1660 Stanley Drive Ripon CA 95366-3200,NA,NA,NA,not tested,Ripon,San Joaquin County,37.7336148720332,-121.143670503065
