district,schoolName,schoolAddress,medianResult,unit,lead,status,city,county,latitude,longitude
Corning Union Elementary,Columbia Academy,1785 Columbia Avenue Corning CA 96021-9115,NA,NA,FALSE,tested,Corning,Tehama County,39.90553,-122.174064
Corning Union Elementary,Maywood Middle School,1666 Marguerite Avenue Corning CA 96021-3530,NA,NA,FALSE,tested,Corning,Tehama County,39.931461,-122.169446
Corning Union Elementary,Olive View Elementary,1402 Fig Street Corning CA 96021-3452,NA,NA,FALSE,tested,Corning,Tehama County,39.9221286969697,-122.170412545455
Corning Union Elementary,West Street Elementary,900 West Street Corning CA 96021-2937,NA,NA,FALSE,tested,Corning,Tehama County,39.926468,-122.185624
Corning Union Elementary,Woodson Elementary,N 150 Toomes Avenue Corning CA 96021-2077,NA,NA,FALSE,tested,Corning,Tehama County,39.9127422,-122.1928609
