district,schoolName,schoolAddress,medianResult,unit,lead,status,city,county,latitude,longitude
Cypress Elementary,A. E. Arnold Elementary,9281 Denni Street Cypress CA 90630-2724,6.55,ppb,TRUE,tested,Cypress,Orange County,33.8247045904059,-118.054602249146
Cypress Elementary,Clara J. King Elementary,8710 Moody Street Cypress CA 90630-2220,NA,NA,FALSE,tested,Cypress,Orange County,33.8148857,-118.0455104
Cypress Elementary,Frank Vessels Elementary,5900 Cathy Ave Cypress CA 90630-4615,9.9,ppb,TRUE,tested,Cypress,Orange County,33.81166,-118.030091
Cypress Elementary,Juliet Morris Elementary,9952 Graham Street Cypress CA 90630-3815,5.8,ppb,TRUE,tested,Cypress,Orange County,33.8181780012228,-118.034526
Cypress Elementary,Margaret Landell Elementary,9739 Denni Street Cypress CA 90630-3447,NA,NA,NA,not tested,Cypress,Orange County,33.8197685783243,-118.054527217465
Cypress Elementary,Steve Luther Elementary,4631 La Palma Ave La Palma CA 90623-1620,NA,NA,NA,not tested,La Palma,Orange County,33.8463549,-118.0410879
