district,schoolName,schoolAddress,medianResult,unit,lead,status,city,county,latitude,longitude
Firebaugh-Las Deltas Unified,Arthur E. Mills Intermediate,1191 P Street Firebaugh CA 93622-2230,NA,NA,NA,not tested,NA,Fresno County,36.8595003012548,-120.455154764049
Firebaugh-Las Deltas Unified,El Puente High,1691 Saipan Avenue Firebaugh CA 93622-2465,NA,NA,NA,not tested,NA,Fresno County,36.8524357152147,-120.449091527395
Firebaugh-Las Deltas Unified,Firebaugh Community Day,1666 Saipan Avenue Firebaugh CA 93622-2438,NA,NA,NA,not tested,NA,Fresno County,36.8524966984251,-120.447793723426
Firebaugh-Las Deltas Unified,Firebaugh High,1976 Morris Kyle Drive Firebaugh CA 93622-9711,NA,NA,NA,not tested,NA,Fresno County,36.846858474718,-120.44934759258
Firebaugh-Las Deltas Unified,Firebaugh Middle,1600 16th Street Firebaugh CA 93622-2407,NA,NA,NA,not tested,NA,Fresno County,36.854198,-120.449943
Firebaugh-Las Deltas Unified,Firebaugh-Las Deltas Adult,1976 Morris Kyle Dr. Firebaugh CA 93622-9711,NA,NA,NA,not tested,NA,Fresno County,36.846858474718,-120.44934759258
Firebaugh-Las Deltas Unified,Hazel M. Bailey Primary,1691 Q Street Firebaugh CA 93622-9711,NA,NA,NA,not tested,NA,Fresno County,36.8622087,-120.4566822
