district,schoolName,schoolAddress,medianResult,unit,lead,status,city,county,latitude,longitude
Fowler Unified,Fowler Academy Continuation,975 E. Adams Avenue Fowler CA 93625-2702,NA,NA,NA,not tested,Fowler,Fresno County,36.6344261020408,-119.667679265306
Fowler Unified,Fowler High,701 East Main Street Fowler CA 93625-2423,NA,NA,NA,not tested,Fowler,Fresno County,36.6334128,-119.670522944684
Fowler Unified,John Sutter Middle,701 East Walter Fowler CA 93625-9792,NA,NA,NA,not tested,Fowler,Fresno County,36.6307751380221,-119.670124609454
Fowler Unified,Malaga Elementary,3910 South Ward Avenue Fresno CA 93725-2538,NA,NA,NA,not tested,NA,Fresno County,36.679105,-119.732883
Fowler Unified,Marshall Elementary,142 North Armstrong Avenue Fowler CA 93625-9601,NA,NA,NA,not tested,Fowler,Fresno County,36.6352272800409,-119.673361817177
