district,schoolName,schoolAddress,medianResult,unit,lead,status,city,county,latitude,longitude
Lindsay Unified,Cairns High School,533 E Honolulu Lindsay CA 93247,NA,NA,NA,not tested,NA,NA,NA,NA
Lindsay Unified,Jefferson Elementary,333 North Westwood Avenue Lindsay CA 93247-1801,NA,NA,NA,not tested,Lindsay,Tulare County,36.20443915,-119.102937435647
Lindsay Unified,John J. Cairns Continuation,290 N Harvard Lindsay CA 93247-2304,NA,NA,NA,not tested,Lindsay,Tulare County,36.2069465626853,-119.082459674904
Lindsay Unified,Kennedy Elementary,1701 East Tulare Road Lindsay CA 93247-2262,NA,NA,NA,not tested,Lindsay,Tulare County,36.21193635,-119.072013001562
Lindsay Unified,Lindsay Senior High,1849 East Tulare Road Lindsay CA 93247-9711,NA,NA,NA,not tested,Lindsay,Tulare County,36.21189365,-119.066886758001
Lindsay Unified,Reagan Elementary,340 North Harvard Lindsay CA 93247-2219,NA,NA,NA,not tested,Lindsay,Tulare County,36.2079613596608,-119.082486381373
