district,schoolName,schoolAddress,medianResult,unit,lead,status,city,county,latitude,longitude
Live Oak Elementary,Cypress Charter High,2039 Merrill Street Santa Cruz CA 95062-4176,NA,NA,NA,not tested,NA,Santa Cruz County,36.9650004,-121.9831159
Live Oak Elementary,Del Mar Elementary,1959 Merrill Street Santa Cruz CA 95062-4102,NA,NA,NA,not tested,NA,Santa Cruz County,36.9650587873275,-121.985736490787
Live Oak Elementary,Green Acres Elementary,966 Bostwick Lane Santa Cruz CA 95062-1700,NA,NA,NA,not tested,NA,Santa Cruz County,36.9841756648771,-121.987261452747
Live Oak Elementary,Live Oak Elementary,1916 Capitola Road Santa Cruz CA 95062-3011,NA,NA,NA,not tested,NA,Santa Cruz County,36.9755875896458,-121.981372439892
Live Oak Elementary,Ocean Alternative Education Center,"984 Bostwick Lane, Suite 6 Santa Cruz CA 95062-1775",NA,NA,NA,not tested,NA,NA,NA,NA
Live Oak Elementary,Shoreline Middle,855 17th Avenue Santa Cruz CA 95062-4169,NA,NA,NA,not tested,NA,Santa Cruz County,36.9671282808989,-121.985495247191
Live Oak Elementary,Special Education Preschool,"984 Bostwick Lane, Suite 1 Santa Cruz CA 95062-1775",NA,NA,NA,not tested,NA,NA,NA,NA
Live Oak Elementary,Tierra Pacifica Charter,986 Bostwick Lane Santa Cruz CA 95062-1756,NA,NA,NA,not tested,NA,Santa Cruz County,36.9834654,-121.9858461
