district,schoolName,schoolAddress,medianResult,unit,lead,status,city,county,latitude,longitude
Nevada City Elementary,Deer Creek Elementary,805 Lindley Avenue Nevada City CA 95959-2911,NA,NA,FALSE,tested,Nevada City,Nevada County,39.2509198267205,-121.028264640826
Nevada City Elementary,Earle Jamieson Educational Options,112 Nevada City Highway Nevada City CA 95959,NA,NA,FALSE,tested,Nevada City,Nevada County,39.2448275,-121.0306945
Nevada City Elementary,Nevada City Charter,750 Hoover Lane Nevada City CA 95959-2910,NA,NA,NA,not tested,Nevada City,Nevada County,39.2553951395225,-121.031433290716
Nevada City Elementary,Terence K. McAteer Center,400 Hoover Ln Nevada City CA 95959,NA,NA,FALSE,tested,Nevada City,Nevada County,39.253893,-121.031605
Nevada City Elementary,Twin Ridges Home Study Charter Schol,111 New Mohawk Road Nevada City CA 95959,NA,NA,FALSE,tested,Nevada City,Nevada County,39.2482593663303,-121.016083471786
