district,schoolName,schoolAddress,medianResult,unit,lead,status,city,county,latitude,longitude
Stanislaus Union Elementary,Agnes M. Baptist Elementary,1825 Cheyenne Way Modesto CA 95356-0987,NA,NA,NA,not tested,Modesto,Stanislaus County,37.69342475,-121.025338202466
Stanislaus Union Elementary,George Eisenhut Elementary,1809 Sheldon Drive Modesto CA 95350-0420,NA,NA,NA,not tested,Modesto,Stanislaus County,37.6855313333333,-121.025145
Stanislaus Union Elementary,Josephine Chrysler Elementary,2818 Conant Avenue Modesto CA 95350-1752,NA,NA,NA,not tested,Modesto,Stanislaus County,37.6810651818182,-121.040388909091
Stanislaus Union Elementary,Mary Lou Dieterich Elementary,2412 Warm Springs Drive Modesto CA 95350-9399,NA,NA,NA,not tested,Modesto,Stanislaus County,37.698821530303,-121.038758484848
Stanislaus Union Elementary,Prescott Junior High,2243 West Rumble Road Modesto CA 95350-0219,NA,NA,NA,not tested,Modesto,Stanislaus County,37.6824154215481,-121.036117999794
Stanislaus Union Elementary,Stanislaus Elementary,1931 Kiernan Avenue Modesto CA 95356-9159,NA,NA,NA,not tested,Modesto,Stanislaus County,37.7113942,-121.0384135
